City_ID,City,Lat,Lng,Max Temp,Humidity,Cloudiness,Wind Speed,Country,Date
0,waitangi,-43.9535,-176.5597,13.23,94,100,6.26,NZ,1717965200
1,port-aux-francais,-49.35,70.2167,5.03,95,100,15.31,TF,1717965200
2,mejit,10.2753,170.8646,28.07,80,56,7.55,MH,1717965200
3,west island,-12.1568,96.8225,26.99,83,40,2.57,CC,1717965035
4,freetown,8.484,-13.2299,26.81,79,7,2.36,SL,1717965200
5,taro,-8.3862,115.28,22.0,100,94,0.55,ID,1717965201
6,fort bragg,35.139,-79.006,32.17,52,69,2.68,US,1717965201
7,stanley,54.868,-1.6985,10.99,78,40,2.57,GB,1717965201
8,matane,48.8286,-67.522,13.96,90,91,5.56,CA,1717965201
9,olonkinbyen,70.9221,-8.7187,-0.84,82,45,7.81,SJ,1717965201
10,port said,31.2565,32.2841,25.99,83,0,4.63,EG,1717965202
11,dum duma,27.5667,95.5667,25.21,91,27,1.19,IN,1717965202
12,port douglas,-16.4833,145.4667,17.95,68,7,2.18,AU,1717965202
13,mount gambier,-37.8333,140.7667,5.1,84,100,2.3,AU,1717965027
14,albany,42.6001,-73.9662,20.25,62,18,0.89,US,1717965202
15,adamstown,-25.066,-130.1015,22.47,73,100,4.42,PN,1717965202
16,dengzhou,37.8086,120.7508,18.72,83,3,2.63,CN,1717965203
17,ust-nera,64.5667,143.2,8.85,40,51,1.5,RU,1717965203
18,puerto natales,-51.7236,-72.4875,0.25,100,100,1.54,CL,1717965203
19,invercargill,-46.4,168.35,8.34,82,100,3.58,NZ,1717965203
20,watsa,3.0372,29.5355,18.5,97,99,1.07,CD,1717965203
21,margaret river,-33.95,115.0667,15.39,60,99,10.38,AU,1717965204
22,berdigestyakh,62.0989,126.6992,14.12,43,5,1.23,RU,1717965204
23,puerto ayora,-0.7393,-90.3518,27.98,93,75,1.79,EC,1717965204
24,yaring,6.8662,101.3689,25.79,86,100,3.21,TH,1717965204
25,grytviken,-54.2811,-36.5092,-6.66,76,20,5.8,GS,1717965204
26,ararat,39.8317,44.7049,20.19,73,36,1.96,AM,1717965204
27,dagomys,43.6703,39.6689,21.97,85,100,1.9,RU,1717965205
28,northam,51.0333,-4.2167,13.67,84,100,7.32,GB,1717965205
29,carnarvon,-24.8667,113.6333,20.92,83,99,3.56,AU,1717965205
30,georgetown,5.4112,100.3354,26.96,88,40,2.06,MY,1717964976
31,nuuk,64.1835,-51.7216,5.34,100,100,18.01,GL,1717965205
32,port elizabeth,-33.918,25.5701,10.61,93,0,2.06,ZA,1717965205
33,naze,28.3667,129.4833,22.51,85,100,3.04,JP,1717965206
34,zouerate,22.7187,-12.4521,32.94,21,7,5.03,MR,1717965206
35,bredasdorp,-34.5322,20.0403,10.23,91,12,1.32,ZA,1717965206
36,derzhavinsk,51.1,66.3167,19.9,77,63,3.0,KZ,1717965206
37,dudinka,69.4058,86.1778,3.71,94,100,3.58,RU,1717965204
38,george town,5.4112,100.3354,26.96,88,40,2.06,MY,1717965206
39,ribeira grande,38.5167,-28.7,20.22,88,20,6.17,PT,1717965207
40,yellowknife,62.456,-114.3525,15.29,63,40,4.63,CA,1717964915
41,chonchi,-42.6128,-73.8092,9.56,87,32,2.05,CL,1717965207
42,hermanus,-34.4187,19.2345,11.56,78,15,3.67,ZA,1717965207
43,hallsberg,59.0657,15.1117,10.39,86,75,4.12,SE,1717965207
44,atafu village,-8.5421,-172.5159,28.45,72,72,3.51,TK,1717965208
45,sur,22.5667,59.5289,31.49,55,0,4.72,OM,1717965208
46,tapa,59.2606,25.9586,5.9,76,0,3.06,EE,1717965208
47,punta arenas,-53.15,-70.9167,2.06,80,75,2.57,CL,1717965208
48,brodnica,53.2597,19.3965,13.54,76,98,3.04,PL,1717965208
49,tateyama,34.9833,139.8667,18.94,91,100,5.11,JP,1717965208
50,east london,-33.0153,27.9116,15.61,68,0,2.55,ZA,1717965209
51,tchollire,8.4022,14.1698,24.11,79,49,2.45,CM,1717965209
52,queenstown,-31.8976,26.8753,8.88,54,0,2.55,ZA,1717965209
53,badger,64.8,-147.5333,24.14,37,75,2.57,US,1717965209
54,mahebourg,-20.4081,57.7,22.16,94,75,5.66,MU,1717965209
55,novoagansk,61.9449,76.6625,10.56,57,3,2.17,RU,1717965210
56,bethel,41.3712,-73.414,23.45,62,75,3.09,US,1717965210
57,jamestown,42.097,-79.2353,20.29,48,20,7.2,US,1717965155
58,kolding,55.4904,9.4722,10.38,76,71,5.14,DK,1717965210
59,kununurra,-15.7667,128.7333,14.99,67,4,3.6,AU,1717965210
60,saint-pierre,-21.3393,55.4781,20.82,73,0,2.57,RE,1717965210
61,kerouane,9.2667,-9.0167,22.35,95,83,1.83,GN,1717965211
62,isafjordur,66.0755,-23.124,5.27,81,84,2.2,IS,1717965211
63,nar'yan-mar,67.6713,53.087,1.73,87,100,4.47,RU,1717965211
64,puerto baquerizo moreno,-0.9,-89.6,25.55,78,75,5.14,EC,1717965211
65,edinburgh of the seven seas,-37.0676,-12.3116,13.49,84,75,7.02,SH,1717965211
66,gumaca,13.9197,122.1003,25.96,85,100,0.87,PH,1717965212
67,hithadhoo,-0.6,73.0833,28.11,74,97,1.32,MV,1717965212
68,inari,68.906,27.0288,13.11,77,47,4.58,FI,1717965212
69,susuman,62.7833,148.1667,3.88,58,23,0.89,RU,1717965212
70,kapuskasing,49.4169,-82.4331,6.05,93,100,6.17,CA,1717965212
71,nyurba,63.2842,118.3319,13.9,87,14,0.57,RU,1717965212
72,dunedin,-45.8742,170.5036,8.78,89,100,3.13,NZ,1717965213
73,cabo san lucas,22.8909,-109.9124,24.61,73,0,3.58,MX,1717964918
74,paracatu,-17.2222,-46.8747,21.73,47,6,1.64,BR,1717965213
75,camana,-16.6228,-72.7111,18.34,77,53,3.55,PE,1717965213
76,whitehorse,60.7161,-135.0538,20.61,27,75,4.63,CA,1717965189
77,gadzhiyevo,69.2551,33.3362,4.89,91,24,3.72,RU,1717965213
78,tura,25.5198,90.2201,24.59,96,30,3.46,IN,1717965214
79,tiksi,71.6872,128.8694,0.61,95,100,3.37,RU,1717965214
80,castillos,-34.1667,-53.8333,21.75,77,67,5.66,UY,1717965214
81,bastrop,32.7562,-91.8724,35.94,52,0,1.34,US,1717965214
82,laguna,38.421,-121.4238,30.86,44,0,4.12,US,1717965214
83,mount isa,-20.7333,139.5,7.87,76,3,1.54,AU,1717965019
84,pathein,16.7833,94.7333,26.01,91,100,2.96,MM,1717965215
85,blackmans bay,-43.0167,147.3167,5.29,85,7,1.34,AU,1717965215
86,plesetsk,62.708,40.2916,9.09,95,91,1.75,RU,1717965215
87,aquiraz,-3.9014,-38.3911,30.02,85,83,2.98,BR,1717965215
88,san patricio,28.017,-97.5169,35.3,49,21,7.17,US,1717965215
89,luderitz,-26.6481,15.1594,20.38,28,6,3.33,NA,1717965215
90,itaituba,-4.2761,-55.9836,31.09,66,20,1.03,BR,1717965216
91,qaqortoq,60.7167,-46.0333,8.03,87,99,2.73,GL,1717965216
92,erenhot,43.6475,111.9767,22.47,25,100,5.96,CN,1717965216
93,ancud,-41.8697,-73.8203,10.74,81,70,6.0,CL,1717965216
94,brookings,44.3114,-96.7984,24.19,40,40,4.63,US,1717965217
95,kirkwall,58.9848,-2.9587,9.03,81,100,7.72,GB,1717965217
96,wailua homesteads,22.0669,-159.378,28.24,74,75,6.17,US,1717965217
97,ushuaia,-54.8,-68.3,-2.19,93,20,2.06,AR,1717965217
98,oxapampa,-10.5775,-75.4017,20.87,62,52,2.04,PE,1717965218
99,vanino,49.0869,140.2543,11.07,98,100,1.18,RU,1717965218
100,port mathurin,-19.6833,63.4167,24.21,81,38,7.77,MU,1717965218
101,ilulissat,69.2167,-51.1,4.01,81,75,2.57,GL,1717965219
102,saint-joseph,-21.3667,55.6167,20.21,82,26,4.62,RE,1717965219
103,iqaluit,63.7506,-68.5145,4.85,52,75,4.12,CA,1717965219
104,shentala,54.45,51.4833,14.73,89,46,0.99,RU,1717965219
105,suva,-18.1416,178.4415,20.71,100,40,1.54,FJ,1717965219
106,north platte,41.1239,-100.7654,25.62,51,0,4.12,US,1717965220
107,kingston,17.997,-76.7936,31.53,70,40,11.83,JM,1717965220
108,sandy point town,17.35,-62.8333,30.31,70,20,5.66,KN,1717965220
109,lompoc,34.6391,-120.4579,28.16,66,0,5.66,US,1717965220
110,hamilton,39.1834,-84.5333,26.71,43,0,4.12,US,1717964891
111,hanceville,34.0607,-86.7675,33.64,57,95,4.44,US,1717965220
112,allendale,42.9723,-85.9537,24.04,46,6,8.06,US,1717965089
113,rio grande,-32.035,-52.0986,26.06,80,100,4.79,BR,1717965221
114,bilibino,68.0546,166.4372,9.58,50,12,1.41,RU,1717965221
115,broken hill,-31.95,141.4333,10.12,65,72,2.54,AU,1717965221
116,changli,39.7042,119.1506,18.94,77,41,1.2,CN,1717965222
117,novyy urgal,51.0736,132.5642,12.45,91,100,0.43,RU,1717965222
118,kourou,5.1552,-52.6478,30.03,78,49,2.81,GF,1717965222
119,coahuayana de hidalgo,18.7,-103.6583,31.56,50,8,3.84,MX,1717965222
120,vorkuta,67.5,64.0,2.28,96,100,1.79,RU,1717965222
121,hawaiian paradise park,19.5933,-154.9731,27.15,65,100,3.09,US,1717965223
122,papao,-17.75,-149.55,29.82,84,96,7.99,PF,1717965223
123,college,64.8569,-147.8028,24.18,34,75,2.57,US,1717965223
124,totness,5.8833,-56.3167,27.35,78,61,3.6,SR,1717965223
125,pak phanang,8.3511,100.202,26.8,77,98,1.99,TH,1717965223
126,st. john's,47.5649,-52.7093,14.66,87,100,8.23,CA,1717965005
127,la libertad,-2.2333,-80.9,23.81,78,40,4.12,EC,1717965224
128,ust'-uda,54.1742,103.0304,12.58,97,64,1.7,RU,1717965224
129,mar del plata,-38.0023,-57.5575,18.01,88,75,4.92,AR,1717965224
130,gouyave,12.1646,-61.7296,28.01,81,78,7.11,GD,1717965224
131,chaman,30.9236,66.4512,24.99,9,0,2.29,PK,1717965224
132,la romana,18.4273,-68.9728,32.2,66,40,4.12,DO,1717965225
133,broome,42.2506,-75.833,21.5,68,100,4.12,US,1717965225
134,okhotsk,59.3833,143.3,5.85,87,16,2.82,RU,1717965225
135,cabedelo,-6.9811,-34.8339,27.37,81,11,6.44,BR,1717965225
136,lihue,21.9789,-159.3672,28.58,68,75,6.17,US,1717965225
137,ullal,12.8,74.85,23.53,100,75,3.09,IN,1717965225
138,saint-philippe,-21.3585,55.7679,20.77,84,51,4.3,RE,1717965226
139,crane,31.3974,-102.3501,37.79,11,98,1.92,US,1717965226
140,imbituba,-28.24,-48.6703,21.59,82,2,4.01,BR,1717965226
141,fale old settlement,-9.3852,-171.2468,28.43,76,77,3.94,TK,1717965226
142,karaman,37.0833,33.25,16.8,60,0,3.3,TR,1717965226
143,dubbo,-32.25,148.6167,1.07,100,100,1.54,AU,1717965033
144,sake,-1.5736,29.045,18.44,80,98,1.06,CD,1717965227
145,hasaki,35.7333,140.8333,17.38,90,100,3.46,JP,1717965227
146,sarai alamgir,32.9012,73.7559,31.54,14,34,2.17,PK,1717965227
147,aasiaat,68.7098,-52.8699,2.07,90,82,2.02,GL,1717965227
148,vernon,50.2581,-119.2691,29.31,21,83,2.06,CA,1717965227
149,dakoro,14.5106,6.765,35.67,22,52,2.98,NE,1717965228
150,cuyo,10.8525,121.0086,28.97,72,100,1.17,PH,1717965228
151,la ronge,55.1001,-105.2842,10.14,66,100,3.09,CA,1717965228
152,thompson,55.7435,-97.8558,17.09,27,20,1.54,CA,1717965228
153,gizo,-8.103,156.8419,28.32,78,47,2.62,SB,1717965228
154,ras el aioun,35.6738,5.6453,25.8,27,70,2.56,DZ,1717965228
155,ribeira brava,32.65,-17.0667,21.67,77,77,0.96,PT,1717965229
156,cockburn town,21.4612,-71.1419,28.02,81,100,4.43,TC,1717965198
157,magistral'nyy,56.1725,107.4458,12.43,52,100,0.86,RU,1717965229
158,iskateley,67.6803,53.1512,1.68,87,100,4.47,RU,1717965229
159,chinsali,-10.5414,32.0816,13.79,88,74,4.64,ZM,1717965229
160,anadyr,64.75,177.4833,8.28,66,0,6.0,RU,1717965230
161,lebu,-37.6167,-73.65,12.73,84,99,7.22,CL,1717965230
162,santa ana,33.7456,-117.8678,27.75,65,75,4.12,US,1717965230
163,saldanha,-33.0117,17.9442,13.03,63,7,4.16,ZA,1717965230
164,egilsstadir,65.2653,-14.3948,7.95,66,40,8.23,IS,1717965230
165,inirida,3.8653,-67.9239,25.7,88,100,0.22,CO,1717965230
166,mankoeng,-23.9,29.8167,5.01,65,0,2.31,ZA,1717965231
167,bardai,11.65,7.2333,30.65,47,40,2.88,NG,1717965231
168,nova sintra,14.8667,-24.7167,23.73,80,0,8.81,CV,1717965231
169,belyy yar,53.6039,91.3903,13.94,82,0,0.0,RU,1717965231
170,necochea,-38.5473,-58.7368,13.58,92,97,10.09,AR,1717965232
171,howard springs,-12.497,131.047,17.95,83,5,2.85,AU,1717965232
172,talnakh,69.4865,88.3972,3.45,98,100,1.72,RU,1717965232
173,ha'il,27.5219,41.6907,35.01,13,20,0.0,SA,1717965232
174,yarmouth,41.7057,-70.2286,16.75,91,100,6.26,US,1717965086
175,newman,37.3138,-121.0208,30.69,16,56,0.58,US,1717965233
176,rongelap,11.1635,166.8941,28.44,81,76,7.08,MH,1717965233
177,horta,38.5333,-28.6333,19.8,88,20,6.17,PT,1717965233
178,ouani,-12.1322,44.4258,25.82,71,100,5.08,KM,1717965233
179,sona,45.4388,10.8255,23.25,77,75,5.14,IT,1717965233
180,kavaratti,10.5669,72.642,28.1,83,100,6.1,IN,1717965233
181,sarkand,45.41,79.9186,21.18,40,32,3.53,KZ,1717965234
182,petropavlovsk-kamchatsky,53.0452,158.6483,13.33,63,75,6.26,RU,1717964997
183,deridder,30.8463,-93.289,34.21,58,40,2.06,US,1717965234
184,constantia,44.1833,28.65,21.5,75,55,6.21,RO,1717965234
185,tofol,5.3248,163.0078,28.93,76,100,6.17,FM,1717965234
186,ondjiva,-17.0667,15.7333,20.02,28,2,1.03,AO,1717965235
187,veselyy,47.0934,40.7422,19.73,77,100,2.93,RU,1717965235
188,pisco,-13.7,-76.2167,18.03,88,100,2.57,PE,1717965235
189,tralee,52.2704,-9.7026,12.28,94,100,6.71,IE,1717965235
190,nakamura,32.9833,132.9333,17.91,98,98,1.79,JP,1717965235
191,san carlos,9.6612,-68.5827,27.64,80,75,1.13,VE,1717965235
192,sarmiento,-45.5882,-69.07,9.88,67,84,3.6,AR,1717965236
193,wuchuan,21.4571,110.7659,26.58,92,100,4.01,CN,1717965236
194,nizhneudinsk,54.9076,99.0276,12.22,96,53,1.71,RU,1717965236
195,maisi,43.0395,41.2621,15.19,99,100,1.07,GE,1717965236
196,menongue,-14.6585,17.691,14.14,43,1,2.42,AO,1717965236
197,afaahiti,-17.75,-149.2833,28.93,83,97,6.18,PF,1717965237
198,mournies,35.4764,24.0092,37.04,78,20,3.09,GR,1717965237
199,touros,-5.1989,-35.4608,25.85,82,97,6.58,BR,1717965237
200,rahimah,26.7079,50.0619,31.12,73,0,4.73,SA,1717965237
201,dire dawa,9.5931,41.8661,22.98,60,0,11.03,ET,1717965237
202,bel ombre,-4.6167,55.4167,27.91,78,20,3.6,SC,1717965237
203,pailon,-17.65,-62.75,30.5,35,47,6.06,BO,1717965238
204,chaihe,44.7667,129.7,12.87,92,39,1.85,CN,1717965238
205,maluso,6.543,121.8753,26.71,86,95,1.3,PH,1717965238
206,el granada,37.5027,-122.4694,28.29,67,100,8.75,US,1717965238
207,south upi,6.8333,124.15,23.45,83,100,1.55,PH,1717965238
208,kodiak,57.79,-152.4072,7.73,93,100,10.8,US,1717965238
209,papatowai,-46.5619,169.4708,7.72,86,100,5.0,NZ,1717965239
210,minas de marcona,-15.2119,-75.1103,16.24,64,30,6.35,PE,1717965239
211,muniz freire,-20.4642,-41.4131,17.99,83,0,0.98,BR,1717965239
212,avarua,-21.2078,-159.775,24.03,50,20,2.57,CK,1717965239
213,yaren,-0.5472,166.916,29.45,72,75,6.92,NR,1717965239
214,nelson,-41.2833,173.2833,14.6,97,92,0.45,NZ,1717965029
215,el calafate,-50.3408,-72.2768,1.58,99,100,1.83,AR,1717965240
216,cerea,45.1921,11.2103,24.08,85,100,3.42,IT,1717965240
217,vigan,17.5747,120.3869,26.96,78,100,2.43,PH,1717965240
218,krasnoural'sk,58.3638,60.0407,9.84,95,32,1.62,RU,1717965240
219,dholka,22.7167,72.4667,29.21,54,60,4.58,IN,1717965240
220,constitucion,-35.3333,-72.4167,13.59,88,100,5.32,CL,1717965241
221,wingham,43.8879,-81.3114,13.55,83,100,6.56,CA,1717965241
222,qarchi gak,37.04,66.7889,29.03,20,0,2.08,AF,1717965241
223,buka,40.8108,69.1986,25.13,29,25,0.55,UZ,1717965241
224,labrador city,52.9463,-66.9114,25.1,36,75,5.14,CA,1717965241
225,tanout,14.9709,8.8879,32.38,11,0,2.23,NE,1717965241
226,tobelo,1.7284,128.0095,26.76,81,100,2.05,ID,1717965242
227,arvika,59.6553,12.5852,9.34,89,100,2.08,SE,1717965173
228,nizhneangarsk,55.7833,109.55,10.56,58,100,0.89,RU,1717965242
229,vadso,70.0744,29.7487,6.49,93,100,7.2,NO,1717965242
230,manggar,-2.8833,108.2667,27.91,82,58,3.33,ID,1717965242
231,harstad,68.799,16.5293,14.89,71,75,6.26,NO,1717965243
232,palikir - national government center,6.9248,158.1611,26.41,89,100,1.54,FM,1717965243
233,happy valley-goose bay,53.3168,-60.3315,23.17,43,40,6.69,CA,1717965243
234,lazaro cardenas,17.9583,-102.2,29.79,58,20,5.62,MX,1717965243
235,holbrook,40.8123,-73.0784,24.9,58,40,8.23,US,1717965154
236,malindi,-3.2175,40.1191,26.15,80,78,8.16,KE,1717965243
237,acarau,-2.8856,-40.12,25.52,88,80,4.46,BR,1717965244
238,kiliya,45.4552,29.2637,19.69,76,100,3.04,UA,1717965244
239,bubaque,11.2833,-15.8333,26.75,79,30,6.47,GW,1717965244
240,ta`u,-14.2336,-169.5144,26.4,62,39,7.81,AS,1717965244
241,tambopata,-12.7333,-69.1833,31.94,51,20,3.09,PE,1717965244
242,callao,-12.0667,-77.15,19.16,72,100,3.09,PE,1717965244
243,shingu,33.7333,135.9833,18.88,94,99,3.94,JP,1717965245
244,santana,-0.0583,-51.1817,30.1,70,40,5.14,BR,1717965245
245,chibougamau,49.9168,-74.3659,12.79,100,100,3.09,CA,1717965245
246,richmond,37.5538,-77.4603,32.22,51,75,6.69,US,1717965245
247,puerto san jose,13.9256,-90.8244,33.03,58,40,4.12,GT,1717965245
248,pacific grove,36.6177,-121.9166,23.45,78,0,5.66,US,1717965246
249,usogorsk,63.4106,48.6872,11.48,84,100,2.27,RU,1717965246
250,taltal,-25.4,-70.4833,17.98,65,37,2.84,CL,1717965246
251,ntcheu,-14.8203,34.6359,13.02,82,48,3.78,MW,1717965246
252,khovd,48.0056,91.6419,16.67,51,9,0.19,MN,1717965246
253,bikenibeu village,1.3673,173.1241,28.98,79,20,2.57,KI,1717965246
254,yuzhno-kurilsk,44.0306,145.8556,11.32,93,100,4.14,RU,1717965247
255,salekhard,66.53,66.6019,6.89,85,89,3.13,RU,1717965247
256,tazacorte,28.629,-17.9293,21.54,90,40,5.14,ES,1717965247
257,pandan,14.0453,124.1694,26.98,86,95,1.69,PH,1717965247
258,kyzyl,51.7,94.45,17.79,58,98,1.79,RU,1717965247
259,tracy,37.7397,-121.4252,30.22,34,61,4.92,US,1717965027
260,betio village,1.358,172.9211,29.02,74,53,5.61,KI,1717965248
261,labuan,5.2767,115.2417,26.2,94,20,0.0,MY,1717965248
262,kailua-kona,19.6406,-155.9956,27.98,81,40,2.57,US,1717965015
263,shitanjing,39.2342,106.3439,20.63,37,40,2.01,CN,1717965248
264,lubang,13.8584,120.124,29.47,73,100,3.29,PH,1717965248
265,lerwick,60.1545,-1.1494,9.0,79,100,9.87,GB,1717965249
266,udachny,66.4167,112.4,16.92,34,99,2.28,RU,1717965249
267,dalandzadgad,43.5708,104.425,18.73,24,12,2.81,MN,1717965249
268,new norfolk,-42.7826,147.0587,5.95,94,34,0.84,AU,1717965249
269,anar darah,32.7587,61.654,28.72,17,0,5.8,AF,1717965249
270,kievka,50.2619,71.5514,18.67,74,45,5.27,KZ,1717965250
271,kaka,37.3482,59.6143,30.57,13,5,2.92,TM,1717965250
272,ust'-kut,56.7938,105.7672,10.8,53,100,1.34,RU,1717965250
273,russkaya polyana,49.417,31.9201,18.88,70,100,3.17,UA,1717965250
274,waldkappel,51.15,9.8833,15.51,85,25,1.68,DE,1717965250
275,rikaze,29.25,88.8833,14.29,46,0,2.14,CN,1717965250
276,nemuro,43.3236,145.575,10.32,94,100,6.32,JP,1717965251
277,santa cruz,-17.8,-63.1667,29.7,54,75,11.32,BO,1717965251
278,xilin hot,43.9667,116.0333,19.89,28,41,5.73,CN,1717965251
279,fort st. john,56.2499,-120.8529,9.94,81,100,1.54,CA,1717965192
280,fortuna,40.5982,-124.1573,19.4,78,75,5.66,US,1717965252
281,saipan,15.1355,145.701,26.39,89,40,3.6,MP,1717965252
282,chatham,51.3789,0.5279,15.62,47,99,1.79,GB,1717965065
283,belize city,17.4995,-88.1976,31.01,81,40,2.06,BZ,1717965252
284,vila franca do campo,37.7167,-25.4333,19.23,99,41,2.25,PT,1717965252
285,longyearbyen,78.2186,15.6401,2.91,65,75,5.14,SJ,1717965028
286,sun city west,33.662,-112.3413,40.68,10,20,4.12,US,1717965005
287,mount pearl,47.5166,-52.7813,14.19,87,100,8.23,CA,1717964965
288,sibsagar,26.9833,94.6333,25.28,93,63,1.6,IN,1717965253
289,khandyga,62.6667,135.6,13.66,54,86,2.91,RU,1717965253
290,waajid,3.8096,43.2463,24.48,65,66,8.38,SO,1717965253
291,keflavik,64.0049,-22.5624,9.95,61,0,4.63,IS,1717965253
292,urzhar,47.093,81.6294,20.73,54,3,2.5,KZ,1717965254
293,mahdia,35.5047,11.0622,23.97,61,85,3.81,TN,1717965254
294,basco,20.4487,121.9702,27.73,81,100,8.55,PH,1717965254
295,piti village,13.4626,144.6933,28.03,89,20,3.09,GU,1717965254
296,coari,-4.085,-63.1414,25.55,96,94,1.92,BR,1717965254
297,kamianske,48.5113,34.6021,20.42,55,87,1.62,UA,1717965255
298,port saint john's,-31.6229,29.5448,16.25,66,0,2.53,ZA,1717965255
299,port alfred,-33.5906,26.891,15.86,63,0,3.66,ZA,1717965255
300,jokioinen,60.8016,23.48,10.18,89,28,3.53,FI,1717965255
301,mugia,43.1041,-9.2179,15.51,83,46,10.72,ES,1717965255
302,gur'yevsk,54.2833,85.9333,10.99,82,44,1.13,RU,1717965256
303,jinghong,21.991,100.7341,22.37,99,100,0.28,CN,1717965256
304,island harbour,50.724,-1.2758,14.99,73,100,0.89,GB,1717965256
305,klyuchi,52.2667,79.1667,17.09,85,99,2.23,RU,1717965256
306,utrik,11.2278,169.8474,27.99,81,61,6.75,MH,1717965256
307,weno,7.4515,151.8468,26.97,94,100,3.09,FM,1717965257
308,ivdel',60.6911,60.4206,13.99,84,19,2.24,RU,1717965257
309,fray luis a. beltran,-32.7912,-60.7282,22.21,68,0,6.69,AR,1717965257
310,sabang,5.8933,95.3214,29.38,73,100,8.83,ID,1717965257
311,sligo,54.2697,-8.4694,10.33,90,100,5.14,IE,1717965257
312,gereida,11.2811,25.1414,28.81,48,100,2.51,SD,1717965258
313,hecun,36.5333,114.1111,25.7,32,61,1.83,CN,1717965258
314,mocimboa,-11.3167,40.35,24.05,67,89,7.12,MZ,1717965258
315,zhicheng,30.2956,111.5047,22.28,85,99,0.98,CN,1717965258
316,amos,48.5669,-78.1162,10.89,86,100,4.31,CA,1717965258
317,carutapera,-1.195,-46.02,25.49,90,72,3.52,BR,1717965258
318,alofi,-19.0595,-169.9187,23.94,64,75,5.66,NU,1717965259
319,auki,-8.7676,160.7034,26.63,88,100,1.67,SB,1717965259
320,chui,-33.6971,-53.4616,20.99,82,74,4.57,UY,1717965259
321,vilyuchinsk,52.9306,158.4028,14.15,81,95,3.57,RU,1717965259
322,tual,-5.6667,132.75,26.86,85,53,9.16,ID,1717965260
323,capitan bado,-23.2667,-55.5333,27.19,33,23,4.07,PY,1717965260
324,brokopondo,4.75,-55.1667,27.31,80,54,5.02,SR,1717965260
325,hadibu,12.65,54.0333,28.03,78,100,6.65,YE,1717965260
326,floro,61.5996,5.0328,11.04,87,100,9.77,NO,1717965260
327,farafangana,-22.8167,47.8333,18.67,82,100,4.41,MG,1717965261
328,boyalik,41.2634,28.6314,22.51,88,1,1.99,TR,1717965261
329,coquimbo,-29.9533,-71.3436,15.85,72,0,2.57,CL,1717965197
330,hassi messaoud,31.6804,6.0729,38.92,13,40,1.54,DZ,1717965261
331,colesberg,-30.72,25.0972,8.56,52,3,2.18,ZA,1717965261
332,inderbor,48.55,51.7833,24.67,45,100,3.31,KZ,1717965261
333,hohhot,40.8106,111.6522,15.16,72,20,1.0,CN,1717965262
334,dangriga,16.9692,-88.2321,29.33,72,100,3.85,BZ,1717965262
335,rabigh,22.7986,39.0349,30.37,53,7,1.85,SA,1717965262
336,la'ie,21.6477,-157.9253,28.98,67,23,3.13,US,1717965262
337,geraldton,-28.7667,114.6,19.23,72,100,3.09,AU,1717965021
338,nantucket,41.2835,-70.0995,17.06,97,100,5.66,US,1717965263
339,mazyr,52.0495,29.2456,16.19,93,99,1.87,BY,1717965263
340,jianshui,23.6363,102.8264,20.0,98,100,0.74,CN,1717965263
341,severnoye,56.3491,78.3619,12.21,74,52,1.79,RU,1717965263
342,labytnangi,66.6572,66.4183,6.88,85,88,2.96,RU,1717965263
343,gangtok,27.3333,88.6167,20.5,96,100,0.63,IN,1717965264
344,kokpekty,48.75,82.4,17.32,84,9,1.52,KZ,1717965264
345,gisborne,-38.6533,178.0042,16.99,88,100,2.92,NZ,1717965264
346,aioun,16.6614,-9.6149,38.53,21,3,2.83,MR,1717965264
347,toamasina,-18.1667,49.3833,20.0,88,75,5.66,MG,1717965264
348,gotsucho,35.0,132.2167,19.03,93,78,1.61,JP,1717965265
349,howrah,22.5892,88.3103,31.0,89,40,5.66,IN,1717965265
350,kashgar,39.4547,75.9797,19.56,52,40,2.0,CN,1717965265
351,holualoa,19.6228,-155.9522,25.91,84,40,2.57,US,1717965265
352,tsiombe,-25.3,45.4833,17.08,67,59,4.16,MG,1717965265
353,marsa alam,25.0757,34.8918,30.67,37,0,4.6,EG,1717964974
354,kiboga,0.9161,31.7742,16.43,85,24,0.58,UG,1717965266
355,angaur state,6.906,134.13,28.75,74,96,2.43,PW,1717965266
356,saint-francois,46.4154,3.9054,13.71,88,0,2.06,FR,1717965266
357,barah,13.7,30.3667,31.91,38,39,3.56,SD,1717965266
358,camocim,-2.9022,-40.8411,25.83,86,94,3.48,BR,1717965266
359,balabac,7.9868,117.0645,26.86,84,91,1.07,PH,1717965266
360,itoman,26.1247,127.6694,24.21,96,75,1.54,JP,1717965267
361,lagunas,-5.2269,-75.6753,31.4,52,79,1.56,PE,1717965267
362,ceres,37.5949,-120.9577,30.68,31,0,1.54,US,1717965267
363,nabire,-3.3667,135.4833,24.52,93,99,1.44,ID,1717965267
364,priob'ye,62.5206,65.5964,17.79,62,100,3.24,RU,1717965267
365,malvan,16.0667,73.4667,26.57,88,100,5.2,IN,1717965268
366,sitka,57.0531,-135.33,10.94,76,75,4.63,US,1717965268
367,bomdila,27.25,92.4,10.42,98,93,0.48,IN,1717965268
368,nuku'alofa,-21.1333,-175.2,23.19,68,20,4.12,TO,1717965268
369,napier,-39.4833,176.9167,17.89,71,94,4.18,NZ,1717965254
370,midar,34.9403,-3.5331,19.65,58,4,2.54,MA,1717965268
371,oranjemund,-28.55,16.4333,19.72,28,46,4.1,NA,1717965269
372,talavera de la reina,39.9635,-4.8308,20.53,67,100,1.9,ES,1717965269
373,gering,41.8258,-103.6605,23.25,58,100,6.17,US,1717965269
374,walvis bay,-22.9575,14.5053,20.27,36,5,2.23,NA,1717965269
375,arkhara,49.4212,130.0842,12.65,89,10,0.89,RU,1717965269
376,la passe,45.5549,-0.8967,19.13,80,2,4.95,FR,1717965269
377,tandil,-37.3217,-59.1332,13.71,78,46,7.71,AR,1717965270
378,oudtshoorn,-33.5907,22.2014,8.2,48,17,1.0,ZA,1717965270
379,polyarnyy,69.1989,33.4478,5.31,88,14,3.01,RU,1717965270
380,souppes-sur-loing,48.183,2.7352,16.36,73,63,3.43,FR,1717965270
381,roma,43.2128,-75.4557,20.53,58,100,8.75,US,1717965167
382,sultanah,24.4926,39.5857,39.25,11,40,5.14,SA,1717965271
383,port-vila,-17.7338,168.3219,21.78,100,20,0.51,VU,1717965271
384,tamanrasset,22.785,5.5228,33.95,10,40,2.06,DZ,1717965271
385,tartouss,34.889,35.8866,23.93,87,0,2.16,SY,1717965271
386,chiredzi,-21.05,31.6667,13.26,65,24,2.75,ZW,1717965272
387,tchintabaraden,15.8969,5.7985,33.7,31,49,4.79,NE,1717965272
388,withernsea,53.7311,0.0335,13.14,90,100,3.37,GB,1717965272
389,cadereyta,25.5833,-99.9833,38.06,24,10,2.83,MX,1717965194
390,rio san juan,19.6439,-70.0763,28.9,79,99,6.09,DO,1717965272
391,markovo,57.3206,107.0881,9.98,64,98,0.93,RU,1717965272
392,igunga,-4.2833,33.8833,19.89,49,89,2.64,TZ,1717965273
393,nadi,-17.8,177.4167,20.0,83,20,0.0,FJ,1717965273
394,twon-brass,4.3151,6.2418,26.88,81,77,6.45,NG,1717965273
395,ofunato,39.0717,141.7167,17.05,97,100,1.21,JP,1717965273
396,muroto-misakicho,33.2833,134.15,21.26,78,95,1.58,JP,1717965273
397,paka,4.6374,103.4368,23.96,100,100,0.0,MY,1717965274
398,tadine,-21.55,167.8833,23.41,88,100,2.93,NC,1717965274
399,kapa'a,22.0752,-159.319,28.99,74,75,6.17,US,1717965274
400,tolanaro,-25.0319,46.9987,17.04,94,75,5.14,MG,1717965274
401,kone,-21.0595,164.8658,22.71,74,100,0.53,NC,1717965274
402,viedma,-40.8135,-62.9967,13.58,53,49,3.9,AR,1717965275
403,amursk,50.2261,136.8994,13.88,99,100,2.07,RU,1717965275
404,chopda,21.25,75.3,28.43,62,100,3.45,IN,1717965275
405,kruisfontein,-34.0033,24.7314,9.38,78,0,1.62,ZA,1717965275
406,yeppoon,-23.1333,150.7333,8.47,66,0,2.35,AU,1717965276
407,nagqu,31.5,92.0,6.3,69,92,2.04,CN,1717965276
408,ca mau,9.1769,105.15,26.28,78,100,1.45,VN,1717965276
409,hilo,19.7297,-155.09,27.27,65,100,3.13,US,1717965276
410,quellon,-43.1167,-73.6167,10.12,85,89,3.57,CL,1717965277
411,torghay,49.6339,63.4981,20.72,72,2,5.39,KZ,1717965277
412,sydney,-33.8679,151.2073,10.4,77,20,3.09,AU,1717965024
413,ketchikan,55.3422,-131.6461,15.19,30,100,4.63,US,1717965238
414,isla mujeres,21.2311,-86.731,32.03,69,11,4.61,MX,1717965278
415,ati,13.2154,18.3353,33.26,33,35,4.93,TD,1717965278
416,mystic island,39.5443,-74.3824,27.88,57,82,5.93,US,1717965278
417,inhambane,-23.865,35.3833,18.31,76,65,3.47,MZ,1717965278
418,villanueva,15.3167,-88.0,32.8,62,20,4.12,HN,1717965278
419,la cocha,-27.7773,-65.5704,24.25,44,100,2.08,AR,1717965279
420,morinville,53.8001,-113.652,13.04,58,100,4.12,CA,1717965279
421,viqueque,-8.8673,126.3658,22.25,74,72,1.22,TL,1717965279
422,jwaneng,-24.6004,24.7303,9.46,50,0,4.24,BW,1717965279
423,ingeniero jacobacci,-41.3427,-69.5448,7.72,60,11,8.07,AR,1717965279
424,brisas de zicatela,15.8369,-97.0419,32.29,62,75,4.12,MX,1717965280
425,rokupr,8.6717,-12.395,26.28,84,98,1.83,SL,1717965280
426,kerikeri,-35.2268,173.9474,17.17,95,91,1.34,NZ,1717965280
427,abu al matamir,30.9102,30.1744,23.27,70,0,3.26,EG,1717965280
428,kamikawa,43.84,142.7711,14.15,96,100,2.3,JP,1717965281
429,jayapura,-2.5333,140.7,25.66,92,52,2.11,ID,1717965281
430,ouricuri,-7.8825,-40.0817,27.45,45,100,1.89,BR,1717965281
431,kill devil hills,36.0307,-75.676,32.01,35,0,4.63,US,1717965281
432,kimbe,-5.5502,150.1429,25.86,88,92,1.46,PG,1717965281
433,kabompo,-13.5927,24.2008,17.76,42,2,4.68,ZM,1717965282
434,carora,10.1755,-70.0827,34.29,36,86,2.68,VE,1717965282
435,arar,30.9753,41.0381,35.01,7,0,5.14,SA,1717965282
436,berezovyy,51.6667,135.7,11.89,99,100,2.33,RU,1717965282
437,essaouira,31.5125,-9.77,20.72,73,20,3.6,MA,1717965283
438,saudarkrokur,65.7461,-19.6394,4.57,93,83,3.76,IS,1717965283
439,shimoda,34.6667,138.95,17.84,96,100,3.79,JP,1717965283
440,guarapari,-20.6667,-40.4975,22.38,76,4,4.08,BR,1717965283
441,merritt,50.1123,-120.7942,27.96,22,100,0.89,CA,1717965283
442,tubarjal,30.4999,38.216,28.11,26,0,9.04,SA,1717965284
443,alice springs,-23.7,133.8833,4.75,93,0,2.57,AU,1717965284
444,dapa,9.7594,126.0531,27.62,80,97,1.75,PH,1717965284
445,arica,-18.475,-70.3042,23.75,63,0,6.69,CL,1717964972
446,ikalamavony,-21.15,46.5833,14.69,77,88,4.06,MG,1717965284
447,villa emilio carranza,19.9667,-96.6,31.53,66,72,5.73,MX,1717965284
448,katsuren-haebaru,26.3369,127.8719,24.21,96,75,1.54,JP,1717965285
449,loikaw,19.6742,97.2094,21.41,92,100,1.36,MM,1717965285
450,nago,26.5881,127.9761,24.24,89,98,1.25,JP,1717965285
451,fedorovka,53.6314,62.7078,15.91,94,87,4.62,KZ,1717965285
452,zhalantun,48.0,122.7167,16.25,48,100,2.49,CN,1717965286
453,karbala,32.616,44.0249,37.22,12,38,5.49,IQ,1717965286
454,deqen,29.9618,90.7188,9.94,72,12,1.68,CN,1717965286
455,ola,59.5833,151.2833,5.08,91,100,1.46,RU,1717965286
456,nefteyugansk,61.0998,72.6035,14.98,55,21,4.47,RU,1717965286
457,inebolu,41.9747,33.7608,20.13,61,61,2.96,TR,1717965094
458,sandnessjoen,66.0217,12.6316,17.29,55,0,4.12,NO,1717965287
459,harper,4.375,-7.7169,25.69,89,99,4.32,LR,1717965287
460,xiuyan,40.2928,123.2744,15.26,95,4,0.91,CN,1717965287
461,vila do maio,15.1333,-23.2167,24.44,83,0,6.52,CV,1717965287
462,akureyri,65.6835,-18.0878,5.96,81,75,4.12,IS,1717965287
463,ranau,5.9538,116.6641,22.1,97,99,0.21,MY,1717965287
464,santa terezinha,-29.9002,-50.0904,19.66,84,6,4.24,BR,1717965288
465,iquique,-20.2208,-70.1431,18.02,84,24,2.56,CL,1717965256
466,charters towers,-20.1,146.2667,9.63,74,6,1.42,AU,1717965288
467,romny,50.751,33.4747,16.9,73,100,2.82,UA,1717965288
468,malango,-2.9627,119.9001,18.9,100,51,0.81,ID,1717965288
469,aitape,-3.1374,142.3475,25.83,87,15,2.11,PG,1717965289
470,medina de pomar,42.9294,-3.488,13.07,95,100,1.95,ES,1717965289
471,dogondoutchi,13.6393,4.0287,38.32,28,31,1.58,NE,1717965289
472,bang khla,13.7214,101.2081,30.21,75,100,3.31,TH,1717965289
473,strathalbyn,-35.2667,138.9,14.5,77,100,2.07,AU,1717965289
474,mandera,3.9366,41.867,28.29,46,87,9.35,KE,1717965290
475,cold lake,54.4502,-110.2017,10.97,76,100,4.12,CA,1717965290
476,mossel bay,-34.1831,22.146,9.96,78,6,2.52,ZA,1717965290
477,porbandar,21.6422,69.6093,28.96,79,2,6.69,IN,1717965290
478,dwarka,22.2394,68.9678,28.92,82,40,6.46,IN,1717965290
479,amahai,-3.3333,128.9167,25.31,88,80,2.55,ID,1717965291
480,praia da vitoria,38.7333,-27.0667,21.14,73,20,3.55,PT,1717965291
481,dryden,49.7833,-92.7503,17.16,29,0,2.06,CA,1717965291
482,soe,-9.8607,124.284,15.34,97,16,1.71,ID,1717965291
483,okha,53.5739,142.9478,5.14,95,100,5.36,RU,1717965291
484,weifang,36.71,119.1019,23.35,45,100,1.12,CN,1717965006
485,cividale del friuli,46.0931,13.4275,22.46,78,91,2.28,IT,1717965292
486,ulladulla,-35.35,150.4667,8.05,88,17,3.49,AU,1717965292
487,katima mulilo,-17.5,24.2667,14.14,56,3,1.97,NA,1717965292
488,veraval,20.9,70.3667,29.37,79,36,6.92,IN,1717965292
489,ad darb,17.7229,42.2526,33.9,31,24,2.58,SA,1717965292
490,vorgashor,67.5833,63.95,2.11,96,100,3.36,RU,1717965293
491,lima,-12.0432,-77.0282,18.14,72,100,3.09,PE,1717964882
492,pingshan,22.9938,114.7131,24.97,92,95,1.79,CN,1717965293
493,severo-yeniseyskiy,60.3725,93.0408,8.1,98,90,1.34,RU,1717965293
494,greenwood,34.1668,-82.1165,30.2,61,0,4.12,US,1717965293
495,redding,40.5865,-122.3917,33.29,37,0,1.54,US,1717965166
496,tarawa,1.419,172.984,29.05,79,20,2.57,KI,1717965294
497,amga,60.8953,131.9608,14.29,62,4,0.66,RU,1717965294
498,tazovsky,67.4667,78.7,0.91,87,100,2.61,RU,1717965294
499,bayamo,20.3792,-76.6433,27.59,80,100,1.03,CU,1717965294
500,greymouth,-42.4667,171.2,13.68,96,100,1.94,NZ,1717965294
501,kazerun,29.6195,51.6541,28.53,29,0,1.61,IR,1717965295
502,mitu,1.1983,-70.1733,26.5,82,100,1.42,CO,1717965295
503,dedza,-14.3779,34.3332,10.2,85,82,2.98,MW,1717965295
504,plerin,48.5425,-2.7798,13.18,74,20,3.6,FR,1717965295
505,belmonte,-15.8631,-38.8828,23.79,82,88,4.69,BR,1717965295
506,sault ste. marie,46.5168,-84.3333,12.31,80,100,9.26,CA,1717965137
507,awjilah,29.1081,21.2869,29.04,20,0,4.69,LY,1717965296
508,haiku-pauwela,20.9219,-156.3051,28.45,60,20,7.72,US,1717965296
509,valle de la pascua,9.2155,-66.0073,28.01,77,96,1.4,VE,1717965296
510,arraial do cabo,-22.9661,-42.0278,23.98,78,0,5.66,BR,1717965296
511,namibe,-15.1961,12.1522,20.35,86,76,1.3,AO,1717965296
512,kayangel,8.0823,134.7173,28.85,75,99,3.33,PW,1717965297
513,porto velho,-8.7619,-63.9039,31.03,62,0,1.03,BR,1717965297
514,goure,13.9835,10.2704,32.06,11,32,2.56,NE,1717965297
515,choibalsan,48.0667,114.5,15.7,64,100,2.25,MN,1717965297
516,kolonia,50.9333,6.95,14.36,61,0,4.12,DE,1717965297
517,alamogordo,32.8995,-105.9603,32.45,18,20,5.14,US,1717965298
518,kapit,2.0167,112.9333,23.12,91,57,0.04,MY,1717965298
519,aberdeen,57.1437,-2.0981,10.3,77,75,5.66,GB,1717965181
520,portland,45.5234,-122.6762,25.83,58,40,1.79,US,1717964994
521,aykhal,66.0,111.5,16.19,44,100,1.76,RU,1717965298
522,hemsby,52.6971,1.6918,13.32,81,92,4.48,GB,1717965298
523,desaguadero,-16.5656,-69.0417,12.0,27,85,3.89,PE,1717965298
524,tongren,27.7172,109.1853,19.81,98,100,0.9,CN,1717965299
525,uturoa,-16.7333,-151.4333,26.53,81,96,5.06,PF,1717965299
526,lages,-27.8161,-50.3261,15.03,94,3,1.38,BR,1717965299
527,whangarei,-35.7317,174.3239,17.18,97,95,0.89,NZ,1717965190
528,las toscas,-28.3529,-59.258,24.6,60,36,3.05,AR,1717965299
529,sarangani,5.4033,125.4636,28.51,73,100,1.44,PH,1717965300
530,luau,-10.7073,22.2247,16.31,42,8,2.31,AO,1717965300
531,bedele,8.456,36.353,13.85,97,76,1.4,ET,1717965300
532,mahina,-17.5065,-149.489,29.87,89,75,2.06,PF,1717965300
533,port lincoln,-34.7333,135.8667,14.67,65,100,3.43,AU,1717965300
534,taroa,8.7058,171.2275,28.48,79,12,7.33,MH,1717965300
535,arno,60.1167,18.6333,10.44,82,99,4.48,SE,1717965301
536,porangatu,-13.4408,-49.1486,27.43,37,91,2.01,BR,1717965301
537,baijiantan,45.6333,85.1833,27.55,33,3,5.54,CN,1717965301
538,korla,41.7597,86.1469,25.42,27,33,3.68,CN,1717965301
539,kirakira,-10.4544,161.9205,27.68,84,69,4.27,SB,1717965302
540,puerto leguizamo,-0.1934,-74.7819,29.08,63,56,0.2,CO,1717965302
541,bandarbeyla,9.4942,50.8122,26.19,86,91,13.59,SO,1717965302
542,whakatane,-37.9585,176.9854,18.21,99,91,1.79,NZ,1717965302
543,abou el hassan,36.4166,1.1962,22.69,48,32,2.24,DZ,1717965303
544,boende,-0.2167,20.8667,26.4,57,100,0.57,CD,1717965303
545,hultsfred,57.4882,15.8436,7.42,89,9,4.18,SE,1717965303
546,vilhena,-12.7406,-60.1458,30.12,35,0,3.6,BR,1717965303
547,mexico,15.0646,120.7198,25.84,86,98,1.23,PH,1717965303
548,antsiranana,-12.2787,49.2917,23.17,72,7,6.16,MG,1717965304
549,sinabang,2.4803,96.3801,25.88,82,100,1.65,ID,1717965304
550,yamada,39.4667,141.95,16.77,94,100,2.67,JP,1717965304
551,athens,37.9795,23.7162,28.15,50,0,1.03,GR,1717965017
552,shillong,25.5689,91.8831,17.27,93,7,2.25,IN,1717965304
553,enewetak,11.3474,162.3373,28.26,83,100,7.3,MH,1717965304
554,narvik,68.4384,17.4272,15.77,64,67,2.43,NO,1717965305
555,harar,9.3094,42.1258,16.24,75,13,3.49,ET,1717965305
556,lianjiang,21.6467,110.2817,25.44,96,100,2.72,CN,1717965305
557,plastun,44.7561,136.2939,12.59,94,78,0.93,RU,1717965305
558,bandraboua,-12.7044,45.1223,26.82,64,82,5.87,YT,1717965305
559,manaure,11.7751,-72.4445,33.1,52,29,5.45,CO,1717965306
560,manokwari,-0.8667,134.0833,26.25,74,97,1.69,ID,1717965306
561,alo,7.4178,6.7371,26.43,82,45,3.33,NG,1717965306
562,klamath falls,42.2249,-121.7817,25.59,45,0,4.63,US,1717965306
563,pochep,52.9336,33.4464,16.99,74,100,2.81,RU,1717965307
